,city,latitude,longitude,temperature,humidity,cloudiness,wind_speed
0,Barrow,-38.31,-60.23,39.06,42,0,4.0
1,Broken Hill,-31.97,141.45,70.74,34,76,11.83
2,Santa Rosa,-36.62,-64.29,45.27,33,0,7.02
3,Punta Arenas,-53.16,-70.91,39.2,100,75,23.04
4,Keti Bandar,24.14,67.45,80.46,98,0,9.82
5,Tarpon Springs,28.15,-82.76,83.66,69,90,6.93
6,Avarua,-21.21,-159.78,71.6,60,75,13.87
7,Khatanga,71.98,102.47,32.85,95,44,3.67
8,Goya,-29.14,-59.27,55.62,89,0,18.43
9,Jamestown,-33.21,138.6,77.49,21,68,10.49
10,Rikitea,-23.12,-134.97,70.47,100,88,11.5
11,Port Elizabeth,39.31,-74.98,73.72,84,1,8.05
12,Bredasdorp,-34.53,20.04,57.2,87,64,13.87
13,Turan,52.15,93.92,38.34,77,76,1.77
14,Hasaki,35.73,140.83,69.8,64,20,2.24
15,San Patricio,-26.98,-56.83,68.67,99,92,8.25
16,Beruwala,6.48,79.98,78.21,100,92,9.04
17,Aykhal,65.95,111.51,26.55,81,36,3.89
18,Bilibino,68.06,166.44,43.38,72,76,3.22
19,Georgetown,6.8,-58.16,79.47,79,0,6.8
20,Vaini,15.34,74.49,68.76,93,36,2.44
21,Carnduff,49.17,-101.8,51.3,77,80,7.36
22,Tucuman,-17.17,-70.89,58.41,59,0,0.65
23,Pritzwalk,53.15,12.18,44.82,85,0,12.73
24,Morondava,-20.3,44.28,74.07,85,0,7.81
25,Bar Harbor,44.39,-68.2,49.57,96,1,2.77
26,Dikson,73.51,80.55,38.25,100,76,18.32
27,Atuona,-9.8,-139.03,79.47,100,0,11.5
28,Ahipara,-35.17,173.16,56.79,100,88,4.23
29,Thompson,55.74,-97.86,37.4,44,90,6.93
30,Qaanaaq,77.48,-69.36,14.49,100,0,13.29
31,Burlington,43.32,-79.8,50.38,100,90,11.41
32,Puerto Ayora,-0.74,-90.35,72.45,100,0,11.83
33,Hilo,19.71,-155.08,79.14,59,1,10.29
34,Lampazos de Naranjo,27.02,-100.51,80.19,64,0,7.7
35,Carutapera,-1.2,-46.02,80.91,80,64,11.72
36,Orange,-33.28,149.1,63.0,82,0,4.23
37,Port-Gentil,-0.72,8.78,78.8,88,75,9.17
38,Clyde River,70.47,-68.59,23.0,92,90,12.75
39,Carnarvon,-30.97,22.13,57.69,23,12,10.49
40,Albany,42.65,-73.75,53.19,93,90,3.11
41,Sorland,67.67,12.69,48.24,100,64,7.36
42,Tiksi,71.64,128.87,25.38,100,64,4.45
43,Tigil,57.8,158.67,44.19,78,76,12.39
44,Touros,-5.2,-35.46,75.87,87,64,15.52
45,Kapaa,22.08,-159.32,81.45,79,90,5.82
46,Bluff,-23.58,149.07,74.34,40,0,11.5
47,New Norfolk,-42.78,147.06,57.2,67,40,3.36
48,Kuusamo,65.96,29.19,35.6,93,90,3.36
49,Saint-Augustin,44.83,-0.61,49.19,87,0,2.24
50,Novikovo,45.05,34.56,58.05,100,64,4.23
51,Faya,18.39,42.45,65.32,47,0,6.93
52,Hambantota,6.12,81.12,78.39,100,44,12.5
53,Wewak,-3.55,143.63,87.57,67,0,4.23
54,Bambous Virieux,-20.34,57.76,71.6,83,40,10.29
55,Ushuaia,-54.81,-68.31,35.6,69,40,17.22
56,Ovsyanka,53.58,126.91,47.79,60,12,8.7
57,Quilmana,-12.95,-76.38,63.0,80,68,1.99
58,Hermanus,-34.42,19.24,54.27,97,92,7.47
59,Hamilton,43.26,-79.87,50.38,100,90,11.41
60,Christchurch,-43.53,172.64,57.2,71,48,6.93
61,Guerrero Negro,27.97,-114.04,74.34,94,92,20.22
62,San Juan,-31.54,-68.53,47.88,50,0,2.77
63,Rila,42.13,23.13,50.0,87,20,4.7
64,Voh,-20.95,164.69,69.66,100,56,21.34
65,Zhob,31.34,69.45,41.49,81,0,1.54
66,Half Moon Bay,37.46,-122.43,76.51,49,75,13.87
67,Ornskoldsvik,63.29,18.72,33.8,74,0,6.93
68,Busselton,-33.64,115.35,56.88,100,0,18.21
69,Bodden Town,19.28,-81.25,84.2,83,20,11.41
70,Saskylakh,71.97,114.09,29.97,97,92,6.24
71,Hobart,-42.88,147.33,59.0,62,40,5.82
72,Karaj,35.81,51.01,68.77,26,0,6.93
73,Arraial do Cabo,-22.97,-42.02,75.69,89,88,8.48
74,Marsa Matruh,31.35,27.25,77.0,73,20,4.79
75,Osakarovka,50.56,72.58,43.29,96,76,9.26
76,Port Augusta,-32.49,137.76,73.4,19,68,2.24
77,Port Alfred,-33.59,26.89,65.61,100,80,8.14
78,Porteirinha,-15.74,-43.03,82.35,37,64,8.59
79,Cananea,30.98,-110.3,66.2,93,90,10.29
80,Axim,4.87,-2.24,78.12,98,20,10.38
81,Codrington,-28.95,153.24,67.32,73,0,4.56
82,Mataura,-46.19,168.86,47.79,97,80,15.52
83,Constitucion,23.99,-104.67,77.0,38,40,4.7
84,Seymchan,62.93,152.39,28.17,99,76,3.67
85,Salalah,17.01,54.1,73.4,73,0,3.36
86,San Pedro de Lloc,-7.42,-79.5,62.73,97,24,13.85
87,East London,-33.02,27.91,69.21,100,36,12.28
88,Pacific Grove,36.62,-121.92,72.0,44,1,11.41
89,Yellowknife,62.45,-114.38,33.8,47,75,18.34
90,Kahului,20.89,-156.47,85.48,53,40,17.22
91,Morehead,38.18,-83.43,75.92,73,1,5.01
92,Pochutla,15.74,-96.47,86.0,70,75,11.39
93,Dunedin,-45.87,170.5,52.11,93,64,8.81
94,Cabo San Lucas,22.89,-109.91,83.21,70,75,12.75
95,Sao Filipe,14.9,-24.5,77.22,100,88,13.51
96,Tuktoyaktuk,69.44,-133.03,28.4,92,75,8.05
97,Saint-Paul,45.22,1.9,41.79,65,0,5.82
98,Ribeira Grande,38.52,-28.7,73.71,96,64,19.89
99,Ilulissat,69.22,-51.1,32.0,94,75,13.87
100,Tazmalt,36.39,4.4,68.0,88,40,4.7
101,Ariquemes,-9.91,-63.03,77.22,87,64,2.21
102,Maningrida,-12.05,134.23,80.91,74,64,15.19
103,Lebu,8.96,38.73,48.69,72,0,5.01
104,Ponta do Sol,-20.63,-46.0,65.79,97,88,2.21
105,Camacha,33.08,-16.33,72.61,73,75,6.93
106,Iqaluit,63.75,-68.52,30.2,68,75,6.93
107,Victoria,5.28,115.24,80.6,94,75,6.35
108,Terenos,-20.44,-54.87,80.6,69,20,3.36
109,Saint George,39.45,22.34,59.0,77,20,3.36
110,Nome,30.04,-94.42,75.51,100,90,4.7
111,Kysyl-Syr,63.9,122.77,35.64,99,88,5.57
112,Legnica,51.21,16.17,48.2,87,75,13.87
113,Marzuq,14.4,46.47,54.45,43,12,4.0
114,Kanepi,57.98,26.76,42.8,81,0,2.24
115,Comodoro Rivadavia,-45.87,-67.48,53.6,37,20,6.93
116,Nanortalik,60.14,-45.24,36.45,99,80,0.76
117,Waipawa,-39.94,176.59,58.95,62,32,16.98
118,Sawakin,19.1,37.33,84.2,54,0,5.82
119,Chimoio,-19.11,33.48,60.8,87,0,2.66
120,Sterling,39.0,-77.4,74.64,74,1,3.36
121,Gobabis,-22.45,18.97,73.4,33,0,3.36
122,Fuerte,17.54,120.36,75.96,90,12,3.56
123,Cherskiy,68.75,161.3,43.2,67,68,3.0
124,Chuy,-33.69,-53.46,53.46,85,88,15.97
125,North Bend,43.41,-124.22,61.79,77,40,6.93
126,Port Macquarie,-31.43,152.91,66.2,59,0,6.93
127,Portland,45.52,-122.67,69.49,47,90,5.82
128,Chokurdakh,70.62,147.9,35.55,98,68,15.3
129,Nikolskoye,59.7,30.79,46.4,75,0,4.47
130,Qaqortoq,60.72,-46.03,33.8,59,68,10.29
131,Ancud,-41.87,-73.83,45.45,95,88,6.69
132,Sao Geraldo do Araguaia,-6.4,-48.55,77.94,88,0,2.77
133,Alice Springs,-23.7,133.88,75.2,17,0,5.82
134,Port Lincoln,-34.72,135.86,62.64,86,68,3.11
135,Pevek,69.7,170.27,44.19,89,80,4.79
136,Chipinge,-20.19,32.62,51.75,85,0,2.66
137,Denpasar,-8.65,115.22,78.8,83,20,2.24
138,Baryshivka,50.36,31.33,48.38,87,0,2.24
139,Anshun,26.25,105.93,56.52,67,76,4.45
140,Oka,6.04,7.09,72.45,98,92,4.0
141,Tagusao,9.19,117.81,80.55,97,44,4.12
142,Valparaiso,41.47,-87.06,73.38,47,40,6.93
143,Sicamous,50.84,-118.99,39.2,93,90,0.98
144,Pisco,-13.71,-76.2,64.44,80,0,2.55
145,Preeceville,51.95,-102.67,35.82,76,80,3.11
146,Mporokoso,-9.37,30.12,70.74,39,76,10.04
147,Esperance,10.24,-61.45,80.6,88,20,6.13
148,Taoudenni,22.68,-3.98,75.87,38,0,4.0
149,Maceio,-9.67,-35.74,71.6,83,20,5.82
150,Kodiak,39.95,-94.76,62.06,93,90,6.93
151,Lompoc,34.64,-120.46,74.61,72,75,13.87
152,Upernavik,72.79,-56.15,36.99,94,68,18.88
153,Hofn,64.25,-15.21,41.85,100,24,10.71
154,Champerico,16.38,-93.6,78.8,78,75,12.75
155,Diffa,13.32,12.61,77.94,63,0,3.0
156,Kaili,-3.46,120.21,73.89,81,48,2.44
157,Kudahuvadhoo,2.67,72.89,77.85,100,80,21.34
158,Bonavista,48.65,-53.11,51.66,92,0,19.1
159,Ostrovnoy,68.05,39.51,33.39,95,68,9.93
160,Berekua,15.23,-61.32,78.8,83,40,1.12
161,Birin,35.01,36.67,59.94,90,20,4.23
162,Labuhan,-2.54,115.51,78.48,81,20,3.22
163,Faanui,-16.48,-151.75,79.02,100,64,10.71
164,Port Hardy,50.7,-127.42,51.8,93,90,4.7
165,Kirkuk,35.47,44.4,66.24,54,0,2.66
166,Kamenka,53.19,44.05,33.12,83,0,5.68
167,Prainha,-1.8,-53.48,84.78,63,0,4.79
168,Mahebourg,-20.41,57.7,71.6,83,40,10.29
169,Longyearbyen,78.22,15.63,30.2,63,75,10.29
170,Lagoa,37.14,-8.45,73.4,49,0,4.7
171,Cockburn Town,21.46,-71.14,82.17,100,20,12.73
172,Mar del Plata,-46.43,-67.52,49.32,45,56,14.52
173,Cristobal Obregon,16.35,-93.53,78.8,78,75,12.75
174,Slangerup,55.85,12.18,41.41,93,0,6.93
175,Hudiksvall,61.73,17.1,42.66,100,0,9.04
176,Morden,49.19,-98.1,52.97,65,90,9.17
177,Robertsport,6.75,-11.37,76.59,100,100,12.17
178,Bad Ischl,47.71,13.62,44.6,87,75,2.24
179,Burns Lake,54.23,-125.76,36.27,67,80,6.69
180,Jinchang,38.52,102.19,32.22,70,20,2.44
181,Butaritari,3.07,172.79,84.33,100,76,5.23
182,Nichinan,31.65,131.31,65.03,56,40,11.41
183,Staryy Nadym,65.61,72.68,26.19,91,0,6.91
184,Springbok,-29.67,17.88,49.14,64,8,3.0
185,Tanout,14.97,8.88,90.9,22,76,9.71
186,Aranos,-24.14,19.11,67.05,30,0,10.94
187,Chicama,-7.84,-79.15,66.24,85,36,4.79
188,Sangar,63.92,127.47,29.34,69,0,7.02
189,Wajid,3.81,43.25,71.55,78,8,11.05
190,Finnsnes,69.23,17.98,36.72,100,68,13.87
191,Turkan,35.6,68.92,18.99,76,0,0.76
192,Beringovskiy,63.05,179.32,45.45,100,12,4.23
193,Guangyuan,32.43,105.86,54.72,62,92,2.55
194,Verkh-Usugli,52.7,115.17,37.35,62,0,2.55
195,Miranda,3.25,-76.23,80.6,61,20,11.41
196,Lakatoro,-16.11,167.42,73.62,100,76,4.23
197,Ponta Delgada,37.73,-25.67,69.8,73,40,12.75
198,Ola,59.58,151.3,41.0,60,20,11.18
199,Iralaya,15.0,-83.23,78.84,100,48,6.02
200,Manitouwadge,49.12,-85.84,34.38,81,0,2.44
201,Cape Town,-33.93,18.42,57.2,76,40,9.17
202,Namatanai,-3.66,152.44,84.69,95,12,6.02
203,Isangel,-19.55,169.27,71.91,100,92,6.8
204,Kaitangata,-46.28,169.85,48.42,99,92,20.0
205,Lensk,60.71,114.91,38.97,89,48,4.9
206,Sao Miguel do Araguaia,-13.28,-50.16,80.64,81,12,3.44
207,Thoen,17.61,99.22,70.47,100,92,2.77
208,Amuntai,-2.42,115.25,78.48,89,32,1.54
209,Auki,12.18,6.51,71.28,93,0,2.77
210,Rawson,-43.3,-65.11,54.99,28,56,15.52
211,Talaya,55.79,84.89,40.32,66,32,5.79
212,Shingu,33.72,135.99,68.0,64,40,3.36
213,Arinos,-15.92,-46.11,86.67,29,100,5.23
214,Haradok,55.46,29.99,46.44,66,92,12.62
215,Bethel,60.79,-161.76,53.06,73,90,12.75
216,Mogadishu,2.04,45.34,77.94,100,88,12.73
217,Aklavik,68.22,-135.01,35.6,64,20,9.17
218,Lubben,51.95,13.9,43.7,87,0,10.29
219,Saint-Philippe,45.36,-73.48,49.26,57,1,2.24
220,Haines Junction,60.75,-137.51,46.89,28,0,2.77
221,Kandrian,-6.21,149.55,84.69,76,12,3.44
222,Tuntum,-5.26,-44.64,77.31,77,0,4.23
223,Mount Gambier,-37.83,140.78,66.24,66,48,7.47
224,Kapit,2.02,112.94,74.97,97,64,1.77
225,Mount Isa,-20.73,139.49,84.2,28,24,19.46
226,Salinas,36.67,-121.66,71.96,44,1,11.41
227,Funadhoo,6.15,73.27,80.28,100,80,20.22
228,Koumac,-20.56,164.28,71.37,96,36,12.73
229,Saldanha,41.42,-6.55,54.72,52,44,9.93
230,Bataipora,-22.3,-53.27,72.99,82,8,3.78
231,Qasigiannguit,68.82,-51.19,32.0,94,75,13.87
232,Vardo,39.62,-77.74,74.93,64,20,6.93
233,Katsuura,33.93,134.5,66.2,72,20,5.82
234,Provideniya,64.42,-173.23,51.8,87,90,8.95
235,Concord,37.98,-122.03,76.57,44,1,5.82
236,Shimoda,34.7,138.93,71.6,60,20,2.24
237,Usinsk,66.0,57.56,38.61,99,92,10.6
238,Ixtapa,20.71,-105.21,87.8,70,40,10.29
239,Grindavik,63.84,-22.43,42.91,86,90,42.5
240,Palana,59.08,159.95,39.15,100,92,3.22
241,Hithadhoo,-0.6,73.08,80.91,100,88,16.64
242,Midland,32.0,-102.08,83.82,43,8,14.99
243,Boca do Acre,-8.76,-67.39,81.45,84,0,2.1
244,Yerbogachen,61.28,108.01,37.89,75,80,5.46
245,Muhororo,-2.51,29.77,66.15,71,88,2.77
246,Pithora,21.25,82.52,74.61,82,12,2.66
247,Noumea,-22.28,166.46,75.2,64,75,12.75
248,Tselinnoye,45.9,34.18,61.74,100,92,3.22
249,Alta Floresta,-9.87,-56.08,77.49,88,12,1.43
250,Tuatapere,-46.13,167.69,46.62,100,76,13.51
251,Quatre Cocos,-20.21,57.76,71.6,83,40,10.29
252,Bandarbeyla,9.49,50.81,76.59,97,80,17.2
253,Nerchinskiy Zavod,51.31,119.61,44.01,47,0,5.12
254,Ouegoa,-20.34,164.44,71.37,96,36,12.73
255,Leningradskiy,69.38,178.42,41.13,90,88,14.74
256,Lekoni,-1.58,14.26,67.41,98,100,3.44
257,Lucapa,-8.42,20.74,64.35,93,36,2.77
258,Dongsheng,29.72,112.52,63.45,82,68,2.89
259,Norman Wells,65.28,-126.83,35.6,64,20,16.11
260,Tempio Pausania,40.9,9.1,59.79,55,40,11.41
261,Castro,-42.48,-73.76,44.55,99,92,6.46
262,Sitka,37.17,-99.65,84.51,37,20,14.52
263,Torbay,47.66,-52.73,48.2,81,75,11.41
264,Umea,63.83,20.26,41.0,80,88,5.82
265,Atar,20.52,-13.05,76.41,62,56,3.56
266,Vila,45.18,8.4,50.14,57,0,5.82
267,Acapulco,16.86,-99.88,84.2,79,75,11.41
268,Pangnirtung,66.15,-65.72,24.93,85,56,9.04
269,Yar-Sale,66.83,70.83,31.95,100,8,5.68
270,Toccoa,34.58,-83.33,74.82,91,90,2.44
271,La Paz,24.15,-110.32,89.6,49,75,9.17
272,Grand-Santi,4.27,-54.38,83.25,65,68,4.9
273,Gijon,43.54,-5.66,53.6,81,20,3.36
274,Tasiilaq,65.61,-37.64,32.0,100,0,6.93
275,Vao,59.1,26.19,46.17,100,100,5.23
276,Ishigaki,24.34,124.16,75.2,73,40,16.11
277,Krumbach,48.24,10.36,43.23,75,75,4.7
278,Shambu,9.57,37.1,54.99,86,88,3.0
279,College,64.86,-147.8,67.23,6,1,10.29
280,Vanimo,-2.67,141.3,84.24,100,64,15.3
281,Abu Dhabi,24.47,54.37,84.2,83,56,6.93
282,Ngunguru,-35.62,174.5,59.31,100,76,6.13
283,Chongqing,29.56,106.55,62.6,93,90,2.24
284,Mayo,63.59,-135.9,48.2,29,5,3.44
285,Severo-Kurilsk,50.68,156.12,47.07,98,20,15.64
286,Francavilla Fontana,40.53,17.58,64.72,88,0,10.29
287,Los Llanos de Aridane,28.66,-17.92,73.4,73,0,8.05
288,Guiratinga,-16.35,-53.76,77.22,77,80,2.66
289,Sampit,-2.54,112.95,79.47,89,44,3.0
290,Lorengau,-2.02,147.27,85.05,96,8,6.58
291,Oistins,13.07,-59.53,80.6,78,20,10.29
292,Shevchenko,48.22,37.14,60.84,71,92,11.61
293,Sola,58.89,5.65,45.48,81,90,8.05
294,Saint-Georges,46.12,-70.67,40.14,83,0,3.0
295,Margate,-43.03,147.26,59.0,62,40,5.82
296,Rafai,4.95,23.92,70.11,99,80,2.77
297,Padang,-0.92,100.36,78.75,100,76,7.14
298,Bolshoye Nagatkino,54.52,47.97,41.0,86,0,6.71
299,Stephenville,32.22,-98.2,83.66,56,40,6.93
300,Putina,-14.91,-69.87,40.32,64,0,5.01
301,Dingle,11.0,122.67,82.35,76,0,3.67
302,Saint-Joseph,43.56,6.97,58.5,76,0,3.36
303,Bhatapara,21.77,81.81,76.32,81,48,2.44
304,Pemba,-12.97,40.52,76.59,100,92,2.55
305,Vila do Maio,15.13,-23.22,78.8,88,75,11.41
306,Nakasongola,1.32,32.46,62.28,92,44,2.66
307,Zaragoza,41.65,-0.88,51.33,58,0,24.16
308,Broome,52.47,1.45,50.7,76,56,6.93
309,Vila Franca do Campo,37.72,-25.43,69.8,73,40,12.75
310,Tomatlan,19.93,-105.25,78.75,82,64,2.21
311,Maniitsoq,65.42,-52.9,35.19,100,88,13.51
312,Zwedru,6.07,-8.13,73.35,98,92,3.44
313,Dudinka,69.41,86.18,33.12,96,44,12.06
314,Kruisfontein,-34.0,24.73,60.84,92,68,11.95
315,Baherden,38.44,57.43,67.32,68,56,3.22
316,Show Low,34.25,-110.03,62.24,87,90,8.05
317,Veraval,49.65,0.71,51.82,81,90,5.82
318,Lun,47.87,105.25,31.23,66,0,3.67
319,Vestmannaeyjar,63.44,-20.27,43.83,100,80,37.89
320,Calamar,1.96,-72.65,76.95,90,48,1.77
321,Port Pirie,-33.18,138.01,73.4,45,68,2.24
322,Sao Joao da Barra,-21.64,-41.05,77.0,78,0,9.17
323,Longjumeau,48.7,2.3,48.45,66,0,5.82
324,Mahibadhoo,3.78,72.97,81.09,100,92,22.57
325,Cayenne,4.94,-52.33,80.6,88,0,3.36
326,San Ignacio,-36.8,-72.03,51.8,50,0,9.17
327,Ouango,4.31,22.55,73.4,100,20,2.44
328,Havre-Saint-Pierre,50.23,-63.6,41.0,86,75,14.99
329,Bure,10.52,10.33,74.7,83,0,6.13
330,General Pico,-35.66,-63.75,45.54,50,0,5.23
331,Barra Patuca,15.8,-84.28,79.92,100,56,8.03
332,Aguimes,27.91,-15.45,73.4,83,20,16.11
333,Namibe,-15.19,12.15,65.97,100,88,2.77
334,Mpraeso,6.6,-0.73,71.01,99,32,3.22
335,Klaksvik,62.23,-6.59,46.4,81,56,24.16
336,Coquimbo,-29.95,-71.34,55.4,76,0,9.17
337,Antofagasta,-23.65,-70.4,59.0,72,90,8.05
338,Warmbad,50.67,13.08,42.76,81,56,10.29
339,Bathsheba,13.22,-59.52,80.6,78,20,10.29
340,De Panne,51.1,2.59,48.2,70,75,6.93
341,Kulhudhuffushi,6.62,73.07,80.01,100,76,20.0
342,Luis Correia,-2.88,-41.67,80.37,71,0,17.54
343,Harnosand,62.63,17.94,31.21,100,0,2.24
344,Santa Maria,-29.69,-53.81,68.0,94,75,3.36
345,Kuryk,43.18,51.68,60.03,76,0,12.06
346,Inawashiro,37.55,140.1,64.4,55,40,16.11
347,Burnie,-41.05,145.91,55.26,96,0,6.58
348,Sinnamary,5.38,-52.96,82.17,94,56,11.16
349,Corning,42.14,-77.05,54.63,90,90,3.36
350,Necochea,-38.55,-58.74,41.22,73,0,2.89
351,Puerto Quijarro,-19.0,-57.72,86.88,62,20,9.17
352,Airai,-8.93,125.41,67.59,89,80,1.66
353,Tual,-5.67,132.75,80.64,98,68,16.2
354,Bulgan,48.81,103.53,29.79,66,0,2.77
355,Kenora,49.76,-94.48,45.57,48,75,8.05
356,Kungurtug,50.6,97.53,21.06,67,0,2.44
357,Pozo Colorado,-23.49,-58.8,88.92,50,80,6.35
358,Henties Bay,-22.12,14.28,57.87,93,0,3.11
359,Arkadak,51.94,43.49,32.31,71,0,7.92
360,Borodyanka,50.64,29.92,48.34,87,92,4.0
361,Meulaboh,4.14,96.13,77.04,100,88,3.78
362,Emerald,-23.53,148.16,74.34,40,0,11.83
363,Gamba,28.28,88.52,26.46,81,48,1.99
364,Paamiut,61.99,-49.67,38.61,95,36,9.6
365,Grand Gaube,-20.01,57.66,71.6,83,40,10.29
366,Tamandare,-8.28,-70.75,79.56,89,32,2.77
367,Saint-Francois,46.42,3.91,41.0,80,0,9.71
368,Kavieng,-2.57,150.8,85.32,100,76,7.81
369,Omsukchan,62.53,155.8,28.08,87,88,3.67
370,Bubaque,11.28,-15.83,73.4,94,40,4.7
371,Hovd,63.83,10.7,36.55,93,0,9.17
372,Goroka,-6.07,145.39,70.56,63,0,2.21
373,Salvacion,13.85,121.93,80.82,100,48,7.25
374,San Carlos de Bariloche,-41.13,-71.31,35.6,79,75,26.4
375,Mocuba,-16.84,36.99,66.51,90,0,3.44
376,Cidreira,-30.17,-50.22,67.32,100,92,8.48
377,Belem,-6.45,-64.49,88.92,57,56,2.21
378,Lianyuan,27.69,111.67,62.55,77,8,2.44
379,The Valley,18.22,-63.06,81.54,69,20,3.36
380,Malanje,-9.54,16.35,64.44,94,44,4.23
381,Kuruman,-27.46,23.43,58.14,37,0,8.25
382,Amlagora,22.83,87.35,75.42,86,20,5.35
383,Puerto Baquerizo Moreno,-0.9,-89.6,70.02,100,44,11.95
384,Longkou,37.64,120.47,67.32,99,0,5.46
385,Sao Jose da Coroa Grande,-8.9,-35.15,75.51,82,92,8.48
386,Rozsypne,48.13,38.57,58.77,84,92,9.6
387,Deputatskiy,69.3,139.9,27.45,86,92,14.52
388,Husavik,50.56,-96.99,43.29,84,92,13.29
389,Praia da Vitoria,38.73,-27.07,71.6,83,40,18.99
390,Am Timan,11.04,20.28,74.61,70,80,2.77
391,Nyurba,63.29,118.35,37.8,83,68,6.46
392,Ciudad Bolivar,8.12,-63.55,87.03,48,0,10.04
393,Baykit,61.68,96.39,43.02,96,92,9.48
394,Lebyazhye,59.96,29.42,46.4,75,0,4.47
395,Coihaique,-45.58,-72.07,42.57,45,75,5.82
396,Lafia,8.5,8.51,71.64,98,92,6.8
397,Paragominas,-3.0,-47.35,77.58,89,24,6.24
398,Zhuhai,40.71,112.04,33.8,86,0,4.47
399,Umm Kaddadah,13.6,26.69,78.57,44,0,8.81
400,Berlevag,70.86,29.09,37.4,64,75,23.04
401,Srednekolymsk,67.46,153.71,34.65,77,24,6.13
402,Suruc,36.98,38.42,71.6,46,0,4.7
403,Souillac,45.6,-0.6,49.01,57,0,2.24
404,Ketou,7.36,2.6,74.79,95,80,4.0
405,Sioux Lookout,50.1,-91.92,42.8,52,75,6.93
406,Kavaratti,10.57,72.64,80.64,100,56,3.44
407,Wanning,48.64,13.53,48.2,81,75,4.7
408,Balkanabat,39.51,54.36,55.89,85,0,1.54
409,Karratha,-20.74,116.85,70.11,66,32,7.92
410,Teshie,5.58,-0.11,77.0,94,90,4.7
411,Dire,9.18,38.92,48.69,72,0,5.01
412,Geraldton,49.72,-86.95,39.2,55,75,4.7
413,Seoul,37.57,126.98,54.36,55,0,1.12
414,San Jose,15.79,120.99,75.24,98,48,2.66
415,Shabo,46.13,30.39,60.8,93,0,2.24
416,Wagar,31.44,-87.99,80.19,80,12,2.66
417,Lander,42.83,-108.73,65.59,18,1,14.99
418,Sao Felix do Xingu,-6.64,-51.99,78.12,88,32,1.99
419,Kloulklubed,7.04,134.26,84.2,79,75,9.17
420,Playa Vicente,17.83,-95.81,74.7,96,56,5.79
421,Talnakh,69.49,88.39,29.07,100,12,6.8
422,Ha Giang,22.83,104.99,60.39,82,12,1.66
423,Nishihara,35.74,139.53,70.11,51,1,5.82
424,Moerai,-22.43,-151.33,68.22,100,88,20.89
425,Punta de Bombon,-17.17,-71.79,62.55,100,80,5.68
426,Cortez,37.35,-108.58,69.08,43,90,8.05
427,Plyussa,58.42,29.37,40.77,91,68,5.79
428,Moose Factory,51.26,-80.61,39.2,69,90,6.93
429,Kattivakkam,13.22,80.32,78.8,94,40,2.55
430,Santa Fe,-31.62,-60.7,53.01,54,0,7.47
431,Sorong,-0.86,131.25,79.65,100,76,6.02
432,Dubna,56.76,37.14,40.32,84,24,11.05
433,Chandbali,20.77,86.74,82.98,100,12,7.47
434,Lavrentiya,65.58,-170.99,46.53,90,68,16.64
435,Lasa,34.92,32.53,69.8,73,20,6.93
436,Wynyard,51.77,-104.18,39.42,89,80,3.44
437,Te Anau,-45.41,167.72,44.91,99,92,4.68
438,Sydney,-33.85,151.22,67.84,46,0,5.82
439,Awjilah,29.14,21.3,66.87,51,0,3.11
440,Tabou,4.42,-7.36,78.66,100,100,11.05
441,Altay,47.83,88.13,27.09,69,20,2.44
442,Roros,62.57,11.38,23.0,100,88,2.24
443,Alghero,40.56,8.32,64.4,52,20,11.41
444,Lunglei,22.89,92.75,67.59,95,68,1.32
445,Mandal,48.82,106.5,27.81,65,0,3.0
446,Mon,26.73,95.03,70.83,98,80,3.11
447,Kosh-Agach,49.99,88.66,23.76,69,0,4.45
448,Marsh Harbour,26.54,-77.06,82.53,100,88,16.42
449,Soresina,45.29,9.86,52.72,93,40,1.12
450,Japura,-0.42,102.29,74.25,94,68,2.77
451,Itarema,-2.92,-39.92,77.94,76,0,16.64
452,Huitziltepec,17.76,-99.48,84.06,38,20,1.54
453,Svarstad,59.4,9.97,38.17,80,20,2.44
454,Algiers,29.94,-90.04,82.56,97,75,8.7
455,Punta Gorda,26.93,-82.05,85.3,70,1,9.17
456,Borogontsy,62.67,131.17,28.71,80,20,5.46
457,Olinda,-2.03,-79.75,85.41,59,92,6.69
458,Copiapo,-27.37,-70.33,55.4,82,40,12.75
459,Oxelosund,58.67,17.1,42.13,100,0,3.36
460,Plouzane,48.38,-4.62,49.51,76,90,3.36
461,Tahoua,14.89,5.26,76.05,82,24,6.02
462,Surt,31.21,16.59,74.79,100,24,13.73
463,Zrece,46.38,15.38,51.15,87,92,7.81
464,Kasempa,-13.46,25.83,68.04,43,0,9.37
465,Yeppoon,-23.13,150.74,75.2,50,20,11.41
466,Oussouye,12.49,-16.54,77.88,94,20,2.24
467,Nouakchott,18.08,-15.98,80.64,94,0,13.51
468,Kununurra,-15.77,128.74,80.6,65,0,8.05
469,Saint-Pierre,48.95,4.24,45.59,75,0,5.82
470,Camopi,3.17,-52.33,81.45,66,48,4.12
471,Bajos de Haina,18.41,-70.03,79.65,78,75,2.55
472,Dauphin,51.15,-100.04,37.4,100,90,3.36
473,Valer,41.76,-6.18,47.61,66,20,6.46
474,Nouadhibou,20.93,-17.03,73.4,78,0,12.75
475,San Policarpo,12.18,125.51,80.55,100,20,6.35
476,Hukuntsi,-23.98,21.76,63.81,33,0,9.48
477,Zinder,13.81,8.99,81.09,47,56,6.02
478,Narsaq,60.91,-46.05,33.8,59,8,10.29
479,North Platte,41.12,-100.77,60.08,61,1,6.93
480,Chaiyaphum,15.81,102.03,73.35,90,48,10.49
481,Camocim,-2.9,-40.84,79.2,70,0,17.09
482,Mitchell,43.71,-98.03,57.92,61,1,4.7
483,Itapuranga,-15.56,-49.95,72.72,75,64,3.11
484,Cubuk,40.24,33.03,56.88,87,40,2.24
485,Port Blair,11.67,92.75,83.52,100,64,3.56
486,Zhanaozen,43.35,52.85,56.43,58,0,8.81
487,Alofi,-19.06,-169.92,77.0,61,75,24.16
488,Naze,5.43,7.07,73.71,97,92,5.57
489,Luau,-10.7,22.23,66.33,66,0,3.11
490,Gat,14.69,-16.54,82.4,83,0,5.79
491,Alexandria,31.31,-92.44,75.74,81,90,14.99
492,Fort Smith,35.39,-94.42,82.33,58,40,6.93
493,Myaundzha,63.05,147.18,26.01,87,80,3.44
494,Raudeberg,61.99,5.14,42.8,87,92,10.29
495,West Plains,36.73,-91.85,77.63,71,40,5.82
496,Pontianak,-0.02,109.34,75.2,94,40,4.23
497,Mitsamiouli,-11.38,43.28,74.97,100,48,1.88
498,Petropavlovsk-Kamchatskiy,53.05,158.65,53.6,66,40,4.47
499,Wattegama,7.35,80.68,70.92,98,68,2.33
500,Muros,42.77,-9.06,53.6,81,0,3.36
501,Pecos,31.42,-103.49,85.69,41,40,18.34
502,Cathedral City,33.78,-116.46,79.88,63,40,9.17
503,Barabai,-2.59,115.38,78.48,89,32,1.54
504,Dickson,36.08,-87.39,77.95,73,1,5.82
505,Tocopilla,-22.09,-70.2,59.22,100,44,4.56
506,Viedma,-40.81,-62.99,53.28,26,0,15.08
507,Agua Prieta,31.32,-109.55,69.98,81,1,9.17
508,Cwmbran,51.65,-3.03,54.25,76,90,17.22
509,Bereda,43.27,-7.54,57.2,71,0,4.7
510,Sur,22.57,59.53,84.87,87,0,5.68
511,Skjervoy,70.03,20.97,37.17,100,32,6.35
512,Canyon Lake,33.68,-117.26,87.62,28,75,10.29
513,Warner Robins,32.62,-83.6,79.83,65,1,4.7
514,Nantucket,41.28,-70.1,63.63,83,90,9.17
515,Panaba,21.28,-88.27,80.55,77,12,7.25
516,High Level,58.52,-117.13,33.8,50,90,10.29
517,Pokhara,28.21,83.99,58.95,62,32,3.0
518,Guararapes,-21.25,-50.65,74.25,77,0,4.56
519,Jinzhou,41.11,121.12,52.74,61,0,4.23
520,Amga,60.89,131.98,31.14,87,36,5.23
521,Praya,-8.71,116.27,80.6,78,20,2.24
522,Roald,62.58,6.12,39.72,81,92,2.24
523,Minna,9.62,6.55,74.79,93,20,3.22
524,Pak Phanang,8.35,100.2,75.2,100,20,2.24
525,Zihuatanejo,17.64,-101.55,82.4,78,75,11.41
526,Bismarck,46.81,-100.78,48.92,77,90,9.17
527,Sawtell,-30.38,153.1,68.0,60,0,8.05
528,San Cristobal,-0.39,-78.55,48.24,100,92,1.88
529,Pareora,-44.49,171.21,53.37,88,88,2.44
530,Sambava,-14.27,50.17,71.19,100,88,15.08
531,Ploemeur,47.73,-3.43,46.4,87,0,4.7
532,Harper,30.3,-99.24,80.56,60,75,5.82
533,Keetmanshoop,-26.57,18.15,64.89,19,0,7.7
534,Antigonish,45.62,-61.99,48.2,81,1,5.82
535,Andapa,-14.66,49.65,60.39,99,92,2.44
536,Laguna,27.52,-110.01,91.4,49,20,6.93
537,Novobirilyussy,56.95,90.69,46.26,79,56,10.6
538,Aitape,-3.15,142.36,85.05,87,8,8.37
539,Pechenga,58.89,41.46,38.34,92,32,10.38
540,Ulladulla,-35.36,150.48,66.2,59,0,0.43
541,Biak,-0.91,122.88,80.01,88,12,5.23
